Name,Category,Cuisine,lat,lng
KFC,fast_food,chicken,2.9917474,101.7887923
Sate Kajang Hj Samuri,restaurant,satay,2.9935811,101.7870848
Malee Classic II,restaurant,seafood,2.9996241,101.7884951
McDonald Good,fast_food,burger,3.0901073,101.7415909
Secret Recipe,fast_food,cake;malaysian,3.0908222,101.7429635
Old Town,cafe,N/A,3.1332340,101.6890616
Restoran Win Heng Seng,restaurant,chinese,3.1454922,101.7150729
Hai Kah Kia,restaurant,N/A,3.1454249,101.7149940
Steam Era Seafood Steamboat Restaurant,restaurant,N/A,3.1445994,101.7140074
Pizza Hut,restaurant,pizza,3.1445538,101.7139565
Chen Jiu Ru,restaurant,N/A,3.1443449,101.7131357
Restoran Chef Rasa Sayang,restaurant,N/A,3.1449770,101.7139645
Restoran Oversea,restaurant,N/A,3.1445976,101.7134509
Restoran Fong Lye,restaurant,N/A,3.1447145,101.7135756
Pure Mind Vegetarian Restaurant,restaurant,N/A,3.1449100,101.7138438
U Cafe,cafe,N/A,3.1450096,101.7114796
Starbucks,cafe,coffee_shop,3.1447766,101.7115735
Tealive,cafe,tea;coffee_shop,3.1453167,101.7111404
Lotteria,fast_food,burger,3.1575724,101.6124514
Blue Boy Vegetarian Restaurant,restaurant,chinese,3.1448602,101.7061467
Voilà Meat Free Restaurant,restaurant,N/A,3.1419175,101.6971822
Shan Yuan Restuarant,restaurant,N/A,3.1533923,101.5917643
Sate Kajang Hj Samuri,restaurant,N/A,2.9916234,101.7885320
Restoran Malaysia,restaurant,chinese,2.9928041,101.7897131
Yishensu - A Vegetarian Connoisseur,restaurant,N/A,3.1493123,101.6166088
Taste Vegetarian House,restaurant,asian,3.1525762,101.5912879
Love Health Vegetarian,restaurant,N/A,3.1505387,101.5926094
Meeples European Boardgame Cafe,restaurant,N/A,3.1513817,101.5931037
Starbucks,cafe,coffee_shop,3.1526378,101.5926080
Tasty Chicken Rice,restaurant,chicken,3.1530554,101.5920018
Medan Satay Kajang,restaurant,N/A,2.9942718,101.7852996
La Chica Mexicana,restaurant,mexican,3.1478855,101.7073937
Pinchos,restaurant,tapas,3.1479897,101.7072015
Herbs & Spices,restaurant,N/A,3.1463506,101.7081705
The Pirates Club KL,restaurant,N/A,3.1485587,101.7087168
Restoran Heritage One Station,restaurant,malaysian,3.1404499,101.6935743
Starbucks,cafe,coffee_shop,3.1493097,101.7127191
VCR,cafe,coffee_shop;international;breakfast;sandwich;savory_pancakes;cake;tea,3.1432531,101.7054476
Vistana Corner,restaurant,indian,3.1426367,101.7043311
Hadramawt Palace,restaurant,arab;jemenite,3.1474516,101.7215001
Levain,cafe,N/A,3.1461634,101.7204323
Al Andalus,restaurant,arab,3.1453002,101.7202356
Fukuya,restaurant,japanese,3.1458916,101.7203257
Yarl,restaurant,indian,3.1339617,101.6906715
Unnamed,restaurant,N/A,3.1270573,101.7300419
Unnamed,restaurant,N/A,3.1276102,101.7297160
Unnamed,restaurant,N/A,3.1277505,101.7296328
YW Coffee Shop,cafe,coffee_shop,3.1456912,101.7073698
Noy Thai Seafood,restaurant,N/A,3.1462436,101.7091044
Birdnest Collective,cafe,N/A,3.1427638,101.6967977
Al-Muhammadi,restaurant,indian,3.1459712,101.7131361
Halab - Berangan,restaurant,arab,3.1476624,101.7085848
Restaurant Yenn,restaurant,N/A,3.1460531,101.7093955
Cu Cha Restaurant,restaurant,N/A,3.1461610,101.7095591
Lot 10 Hutong Food Court,food_court,N/A,3.1469293,101.7118546
Zu Chuan,restaurant,chinese,3.1459247,101.7119460
Hong Kong's Food Culture,restaurant,N/A,3.1440610,101.7104800
Yusoof Dan Zakhir,restaurant,N/A,3.1450281,101.6958385
The Loaf Bakery & Bistro,cafe,italian,3.1490063,101.7126152
Cafe de Paris,cafe,N/A,3.1491160,101.7127059
Sushi Zanmai,restaurant,sushi,3.1473219,101.7132001
O'Briens,cafe,sandwich,3.1519347,101.6667532
Jom Cari Makan,restaurant,N/A,3.1533260,101.5936564
Unnamed,cafe,N/A,3.1417375,101.6869907
TGI Fridays,restaurant,american,3.1492416,101.6164389
Poolview Cafeteria,restaurant,asian,3.1535356,101.6045591
Hakka,restaurant,chinese,3.1507057,101.7129496
Muar,restaurant,N/A,3.1456292,101.7068590
Anytime Dining,cafe,N/A,3.1450937,101.7076256
Park 28 Mutiara Damansara,restaurant,western,3.1557846,101.6130070
Ahmed Nasi Kandar Penang,restaurant,N/A,3.1452663,101.6982159
Tajudin Nasi Beriani,restaurant,N/A,3.1464391,101.6959811
Nomad’s,cafe,N/A,3.1437075,101.6958106
West Lake,restaurant,chinese,3.1430231,101.6985746
Jiu Pin,restaurant,chinese,3.1456042,101.7031348
AllAce Burger & Chicken,fast_food,N/A,3.1452823,101.6984154
Bol - Asian Reimagined,restaurant,N/A,3.1431274,101.7048622
Claypot Rice By The Roadside,fast_food,N/A,3.1449144,101.6986365
Sun Fong Baku teh,restaurant,N/A,3.1444541,101.7145184
Mitasu,restaurant,japanese,3.1491000,101.7117330
Noble House,restaurant,cantonese,3.1448060,101.7199590
Adyar Ananda Bhavan,restaurant,indian,3.1466393,101.7003397
Moontree House,cafe,cake;coffee_shop,3.1419750,101.6972237
Old Kasturi Kopitiam,restaurant,N/A,3.1428220,101.6959358
Dunkin',fast_food,donut;coffee_shop,3.1458007,101.7008030
Hwa Viet Kitchen,restaurant,N/A,3.1459166,101.7018121
KFC,fast_food,chicken,3.1450872,101.6986728
Sup Kambing Tangga,fast_food,N/A,3.1452467,101.6977313
Sisha's Place,restaurant,N/A,3.1429585,101.7088789
Wong Ah Wah,restaurant,chinese;seafood;chicken,3.1448910,101.7079037
Sutraa,restaurant,burger;indian,3.1477092,101.7078230
Grandmama's Pavillion Restaurant,restaurant,N/A,3.1494450,101.7122589
Ali Maju Cafe,restaurant,N/A,3.1546346,101.6654677
Restoran Loong Huang,restaurant,N/A,3.1457619,101.6964682
Mala Tang Jalan Sultan,restaurant,N/A,3.1436340,101.6985536
Chocha Foodstore,cafe,N/A,3.1408565,101.6980974
Ali Muthu & Ahhack,restaurant,N/A,3.1413972,101.6972637
Outback,restaurant,N/A,3.1444497,101.7093101
La Boca,restaurant,N/A,3.1498173,101.7130879
Restoran Kiew Yee Baru,restaurant,chinese,3.1438365,101.6966932
New Shanghai,restaurant,chinese,3.1509167,101.7088528
Starbucks,cafe,coffee_shop,3.1470013,101.7119676
The Coffee Bean & Tea Leaf,cafe,coffee_shop,3.1495335,101.7124457
The Pressroom,restaurant,N/A,3.1499057,101.7125597
Le Shady Trinity,cafe,N/A,3.1428954,101.6964298
Feeka Coffee Roasters,cafe,N/A,3.1486909,101.7084018
Ali-Sons Nasi Kandar,restaurant,N/A,3.1452529,101.6980753
Rasta Cafe & Bar,cafe,N/A,3.1428073,101.6965989
Morganfield's,restaurant,N/A,3.1495209,101.7123563
Nam Heong,restaurant,chinese,3.1435269,101.6985493
Auntie Anne,cafe,N/A,3.1423209,101.7106127
KFC,fast_food,chicken,3.1347778,101.6864741
KFC,fast_food,chicken,3.1425137,101.7106717
Papa John's,fast_food,pizza,3.1426959,101.7104652
Merchant's Lane,cafe,N/A,3.1410448,101.6980959
Dining in the Dark KL,restaurant,international,3.1474986,101.7082688
Fast & Yummy Shawarma,fast_food,arab,3.1453460,101.6969164
Suriani,restaurant,N/A,3.1482212,101.7089022
Camp5 Climbing Gym,cafe,N/A,3.1501164,101.6163919
The Counter,restaurant,N/A,3.1479856,101.7150232
Old China Café,restaurant,asian,3.1413844,101.6973506
Le Monde Cafe,cafe,N/A,3.1466716,101.6958311
Shell Out,restaurant,seafood,3.1520873,101.5919464
Mongolia BBQ,restaurant,N/A,3.1468784,101.7086555
Khalifah,restaurant,N/A,3.1509658,101.5924887
Arimau Nasi Lemak Berlauk,restaurant,malaysian,3.1516600,101.5922161
Nasi Kandar Padang Kota,restaurant,nasi_kandar,3.1516514,101.5919445
Sao Nam,restaurant,vietnamese,3.1458550,101.7075938
Kedai Kopi Lai Foong,restaurant,chinese,3.1453009,101.6967286
Tang City Food Court,food_court,N/A,3.1445107,101.6981807
Koryo,restaurant,korean,3.1458009,101.7160126
J&P Magic House,restaurant,N/A,3.1481158,101.7079929
Halab Castle,restaurant,N/A,3.1477865,101.7086475
Taz,restaurant,malaysian,3.1479933,101.7095450
Pacific Restaurant and Bar,restaurant,western,3.1473672,101.7084663
El Cerdo,restaurant,spanish,3.1474522,101.7078863
The Steakhouse,restaurant,N/A,3.1475125,101.7082375
Ciccio,restaurant,pizza;pasta;salad;seafood,3.1477572,101.7071119
Subway,fast_food,sandwich,3.1457606,101.7098206
Unnamed,food_court,cafeteria,3.1381608,101.6874033
McDonald's,fast_food,burger,3.1467592,101.7109550
Unnamed,restaurant,N/A,3.1508870,101.7096437
Boardwalk,restaurant,N/A,3.1355822,101.6856358
Iketeru,restaurant,japanese,3.1353511,101.6859575
Unnamed,fast_food,chinese;dim_sum;bao,3.1434125,101.6985133
Kayu Nasi Kandar,restaurant,nasi_kandar,3.1532674,101.5926137
The Artcoffee,cafe,american;asian,3.1505712,101.5917096
Mon Chinese Beef Roti,restaurant,N/A,3.1459006,101.7099823
Sri Paandi,restaurant,indian,3.1446087,101.7084030
Sri Ganesa,fast_food,indian,3.1466092,101.7005829
Arab Hadramot,restaurant,arab,3.1417568,101.7092489
Secret Recipe,fast_food,cake;malaysian,2.9960665,101.7902529
Heritage Cafe,restaurant,N/A,2.9959487,101.7902610
Restoran Ayza's,restaurant,N/A,2.9954706,101.7902315
Kedai Kopi Zillion,restaurant,chinese,2.9921556,101.7891029
Old Buddha Vegetarian Restaurant,restaurant,N/A,2.9921527,101.7892333
Restoran Bintang Kajang,restaurant,chinese,2.9924194,101.7897010
Restoran Anjung,restaurant,malaysian,2.9927970,101.7898942
Restoran Sri Santhi,restaurant,indian,2.9912730,101.7822989
Kopitiam Yat Yeh Heng,restaurant,chinese,2.9913689,101.7824688
Ilman Cafe,cafe,malaysian,2.9773748,101.7916604
Ah hei bakkutteh,restaurant,N/A,3.1444537,101.7143980
Mawar Merah,restaurant,malaysian,3.1453353,101.6990643
Restoran Kim Lian Kee,restaurant,malaysian;chinese;noodle,3.1443421,101.6975031
Precious Old China,restaurant,N/A,3.1454428,101.6954569
Damascus Шаурма,fast_food,kebab,3.1472690,101.7112570
Michaelango,restaurant,N/A,3.1484676,101.7135431
Palmierra28,restaurant,N/A,3.1410137,101.6980980
Urban Operation,restaurant,N/A,3.1452703,101.6982660
Starbucks,cafe,coffee_shop,3.1518761,101.6659259
Subway,fast_food,sandwich,3.1515928,101.6661649
Tg's Nasi Kandar,restaurant,indian;malaysian;asian,3.1455737,101.7067580
McDonald's,fast_food,burger,3.1346045,101.6863202
Subway,fast_food,sandwich,3.1359541,101.6889358
Hon Kee Porridge,restaurant,chinese,3.1443477,101.6978606
etc.,cafe,N/A,3.1430594,101.6966318
Sana'a Restaurant,restaurant,N/A,3.1471000,101.7124390
Baan 26,restaurant,thai,3.1478039,101.7076197
Quizinn Foodcourt,restaurant,N/A,3.1336019,101.6872045
Madam Kwan,restaurant,N/A,3.1486149,101.7130001
Jersey Jack Gelato,cafe,N/A,3.1475143,101.7090376
French Feast,restaurant,french,3.1458520,101.7071226
Rococo Café Restaurant,restaurant,N/A,3.1465136,101.7089013
Restoran Ameen,restaurant,indonesian;malaysian;asian,3.1455852,101.7126819
Gani Bistro Nasi Kandar,restaurant,local;malaysian;asian,3.1463335,101.7185803
Starbucks,cafe,coffee_shop,3.1444638,101.7098633
Arraaziq,restaurant,indian,3.1446047,101.7096872
Fuel Shack,fast_food,N/A,3.1445102,101.7099225
KFC,fast_food,chicken,3.1445685,101.7100797
Sin Kiew Yee Shin Kee Beef Noodles,restaurant,noodle,3.1450869,101.6969606
Husen Cafe,restaurant,indian;malaysian,3.1330377,101.6889180
Ko Ryo Jeong,restaurant,korean,3.1474216,101.7135998
Neroteca,restaurant,N/A,3.1488157,101.7074215
Ozeki,restaurant,japanese,3.1510853,101.7120628
Lodge Paradize Poolside,restaurant,N/A,3.1506055,101.7102004
Burger on 16,restaurant,burger,3.1414299,101.7095202
Wong Fook Kee,restaurant,chinese,3.1461609,101.7079864
Unnamed,restaurant,korean;barbecue,3.1448175,101.7090175
Saigon Station,restaurant,N/A,3.1454328,101.7080463
ABC Bistro Cafe,restaurant,indian,3.1326357,101.6877913
Din Tai Fung,restaurant,taiwanese,3.1492060,101.7121887
Indian Mini Restaurant,fast_food,N/A,3.1467409,101.7105566
Payung Cafe,restaurant,N/A,3.1426579,101.6936549
Dotty's Pastries,cafe,N/A,3.1402536,101.6285901
Foodle,restaurant,N/A,3.1437733,101.6958100
Via Pre Kl Italian restaurant,restaurant,N/A,3.1439149,101.6575103
Starbucks,cafe,coffee_shop,3.1465502,101.6616469
McDonald's,fast_food,burger,3.1491470,101.6168094
Starbucks,cafe,coffee_shop,3.1275163,101.7235582
Subway,fast_food,sandwich,3.1345429,101.7227281
Starbucks,cafe,coffee_shop,3.1344361,101.7228060
KFC,fast_food,chicken,3.1264599,101.7277608
IKEA Restaurant,fast_food,swedish,3.1354754,101.7216212
Nando's,restaurant,chicken;portuguese,3.1339739,101.7230193
IKEA Restaurant,fast_food,swedish,3.1568022,101.6123341
Subway,fast_food,sandwich,3.1569741,101.6112329
Purple Miao,restaurant,N/A,3.1448780,101.7087088
Ho Kow Hainam Kopitiam,cafe,N/A,3.1413488,101.6976799
Restoran Jaya,fast_food,N/A,3.1463113,101.7004730
Food Court Lot 10,fast_food,N/A,3.1463684,101.7119416
The Enclave,restaurant,burger;pasta;chicken;indian,3.1345831,101.6266673
The Nasi Lemak Guys,restaurant,malaysian;asian,3.1353275,101.6290435
Ice Dreams Cafe,cafe,ice_cream;coffee_shop,3.1354819,101.6290393
Myra’s,restaurant,indian;mexican,3.1506546,101.7085076
Starbucks,cafe,coffee_shop,3.1334558,101.6869574
Starbucks,cafe,coffee_shop;tea,3.1426205,101.7100268
Sweet Potato Balls Petaling Street,fast_food,N/A,3.1445184,101.6980566
Kim Soya Bean,fast_food,malaysian;dessert,3.1443381,101.6976014
Limkee Cafe,cafe,N/A,3.1438163,101.6985690
Naab,restaurant,kebab,3.1472249,101.7116918
Bubble Bee Cafe,cafe,N/A,3.1416868,101.6978900
Nine Dragon Char Chan Teng,restaurant,N/A,3.1416107,101.6980586
Leaf & Co,cafe,N/A,3.1429152,101.6987455
Warung Wok,restaurant,N/A,3.1362070,101.6908704
Vishal Food & Catering,restaurant,indian,3.1352110,101.6920878
Greyhound Cafe,cafe,N/A,3.1469634,101.7120323
Walter Food Court,cafe,N/A,3.1539686,101.5955352
Hawker Center,food_court,N/A,3.1446310,101.7112082
Resepi Ayah,fast_food,N/A,3.1452388,101.6979244
Kenny Rogers Roasters,fast_food,N/A,3.1428401,101.7109760
Unnamed,fast_food,N/A,3.1482372,101.7097216
Koon Kee Wan Tan Mee,fast_food,chinese,3.1443268,101.6979330
Mohamed Nazar Curry House,restaurant,N/A,3.1462916,101.7136845
Restoran Han Kee,restaurant,chinese,3.1431890,101.6985691
Restoran Pik Wah,restaurant,N/A,3.1430023,101.7003727
Poppo Kanteen,restaurant,local,3.0894754,101.7427989
Yellow Brick Road,cafe,N/A,3.1496178,101.6615059
CMCR Kuala Lumpur,cafe,N/A,3.1397698,101.6303033
Ben’s,cafe,N/A,3.1490455,101.7124945
Clay Pot Street Food,fast_food,N/A,3.1443937,101.6986453
Ben’s General Food Store,cafe,N/A,3.1339615,101.6298297
Ours Eatery,cafe,N/A,3.1458222,101.6619516
Mighty Monster,cafe,N/A,3.1346315,101.7232414
The Fish Bowl,cafe,N/A,3.1459730,101.6621355
The Fish Bowl,cafe,N/A,3.1491596,101.7124153
33 Restoran WK Tiga Tiga,restaurant,N/A,3.1426598,101.7148698
Birdnest Café & Bar,restaurant,N/A,3.1454818,101.7071117
Junk Cafe,restaurant,N/A,3.1418364,101.6980260
Sushi Kitchen,restaurant,japanese;fusion,3.1505274,101.5828112
Hadramot House,restaurant,N/A,3.1465886,101.7107517
Breakfast Spot Petaling Street,cafe,N/A,3.1412978,101.6980874
Anne Elizabeth The Deli,restaurant,deli;barbecue;hotdog;steak_house;sausage;grill,3.0886082,101.7436480
Heritage Journey,fast_food,japanese,3.1460691,101.7118481
Satay Putera Kajang,restaurant,N/A,2.9927559,101.7863262
Station Cafe,cafe,N/A,3.1379878,101.6875075
Halab - Beremi,restaurant,arab,3.1475646,101.7103584
Sahara Tent,restaurant,N/A,3.1428095,101.7087339
Vintage 1988,cafe,cake;coffee_shop;deli,3.1428583,101.6985774
Ampersand,cafe,N/A,3.1461425,101.7116376
Vetri Bay Leaf Curry House,restaurant,N/A,2.9924412,101.7885106
India Gate,restaurant,N/A,3.1477084,101.7084409
Mixue,cafe,ice_cream;bubble_tea,3.1437953,101.6987392
Bonzer Corner,restaurant,N/A,3.1447150,101.7074474
Texas Chicken,fast_food,chicken,3.1455387,101.6974356
Bröom At Bukit Bintang,cafe,N/A,3.1435359,101.7048283
Next2Free,fast_food,N/A,3.1455215,101.7120778
Al-Sarifa,restaurant,indian,3.1465270,101.7083203
Bocado,restaurant,spanish,3.1495494,101.6651155
Amazins Thai Food,restaurant,N/A,3.1450327,101.7080848
Infusion Specialty Coffee Co,cafe,N/A,3.1504671,101.6157384
KLCG,restaurant,coffee_shop,3.1470962,101.6956792
Sushi Zanmai,restaurant,japanese,3.1332558,101.6866541
Triple Gold Kitchen,cafe,N/A,3.1461208,101.7095230
Wizards At Tribeca,restaurant,N/A,3.1461963,101.7156103
Halab Gate Shawarma,restaurant,N/A,3.1474480,101.7107892
OldTown White Coffee,cafe,coffee_shop;malaysian,3.1496027,101.7121899
Chinese Hawker Centre,food_court,N/A,3.1330606,101.6892872
Chinese Food & Baos,restaurant,N/A,3.1327782,101.6889460
Aachi Mess,restaurant,indian,3.1346109,101.6918461
Pizza Mansion,restaurant,N/A,3.1486286,101.7085598
Bunn Choon,cafe,chinese,3.1413522,101.6976066
Vinny Jeyaa,restaurant,indian,3.1432525,101.6958615
Simple Life Vegan Cafe,cafe,N/A,3.1462998,101.7119938
McDonald's,fast_food,burger,3.1047723,101.7328518
Hugo’s KL,restaurant,malaysian;western;pasta;burger,3.1483520,101.7078570
Restoran Char Siew Yoong,restaurant,chinese,3.1206172,101.7299668
Chuan Kee Hakka Restaurant,restaurant,chinese,3.1204101,101.7298774
Shawarma Damascus,fast_food,N/A,3.1456071,101.7113305
Wrap n'go,restaurant,N/A,3.1447940,101.6958470
KFC,fast_food,chicken,3.1055339,101.7323905
KFC,fast_food,chicken,3.1113471,101.7299857
Restoran Nasi Kandar Ali Maju,restaurant,N/A,3.1115444,101.7299179
Mingle Cafe,cafe,coffee_shop,3.1429692,101.6987448
Restoran Dhurbar,restaurant,asian;indian,3.1026929,101.7331783
Sakura Sushi,restaurant,japanese,3.1024889,101.7324086
Tosaya,restaurant,japanese,3.1029796,101.7330037
Restoran 21,restaurant,N/A,3.1017975,101.7333379
Tar Boosh,restaurant,N/A,3.1333137,101.6883467
Petaling Street Asam Laksa,fast_food,N/A,3.1437143,101.6976447
Warong Old China,restaurant,N/A,3.1449460,101.6967095
Kafei Dian,restaurant,coffee_shop;malaysian,3.1416022,101.6969755
Tarma,restaurant,arab;iraqi,3.1471725,101.7099667
Wu Li Tou Drunken Clam Noodle,restaurant,N/A,3.1447602,101.6986851
Molten Chocolate Cafe,cafe,N/A,3.1461860,101.7116255
Drift Restaurant & Bar,restaurant,N/A,3.1489357,101.7097068
Crispy Pork Noodles Soup,restaurant,N/A,3.1434742,101.6985467
Hana & Thyme,restaurant,international;local,3.1446142,101.7050156
Xin Ji Kitchen,restaurant,thai;malaysian,3.1459139,101.7086796
Indian Empire,restaurant,indian,3.1446742,101.7084908
Pobeda,restaurant,N/A,3.1479535,101.7072600
Grand Harbour Restaurant (Fahrenheit 88),restaurant,N/A,3.1467796,101.7135243
Mala Tang Jalan Sultan,restaurant,N/A,3.1432363,101.6987369
McDonald's,fast_food,burger,3.1424588,101.7107341
Sindbad,restaurant,N/A,3.1412661,101.7097719
Ching Ching by Pandan Republic,cafe,coffee_shop;ice_cream;malaysian;tea,3.1416100,101.6975691
The Hungry Tapir,restaurant,western,3.1417953,101.6977197
Jusu,cafe,smoothie;milk_shake;juice,3.1471565,101.7109344
Pik Wah Restaurant Chinwoo Stadium KL,restaurant,chinese;seafood,3.1414372,101.6988598
Restoran Telawi,restaurant,mamak,3.1429839,101.6934641
Nero Nero,restaurant,italian,3.1459105,101.6618667
Burger King,fast_food,burger,3.1444268,101.7098170
Starbucks,cafe,coffee_shop,3.1470564,101.6995006
Purradise,cafe,N/A,3.1402659,101.6284402
Dua by Skohns,restaurant,N/A,3.1397897,101.6283825
NZ Curry House,restaurant,N/A,3.1492611,101.7117604
Balquis,restaurant,arabic;yemeni,3.1476764,101.7038884
Hobby n Coffee,cafe,N/A,3.1404008,101.6288851
Alison Soup Hse,restaurant,N/A,3.1404698,101.6290735
Al Norul,restaurant,indian,3.1452307,101.7099373
Vojon Bilash,restaurant,bangladeshi,3.1471767,101.7097804
Food Village,restaurant,N/A,3.1471970,101.7096010
Thai Somtam Seafood,restaurant,thai,3.1471736,101.7098535
Mezbani,restaurant,N/A,3.1474678,101.7091107
Bachelor Point,restaurant,bangladeshi,3.1478193,101.7090368
Halab Express,restaurant,shawarma;middle_eastern;arabic,3.1477511,101.7087672
Arabella,restaurant,arab,3.1487672,101.7091346
Histana Maju,restaurant,indian,3.1490136,101.7092325
Shawarma on the way,restaurant,N/A,3.1472703,101.7086708
dipndip,cafe,N/A,3.1484423,101.7127044
The Ship,restaurant,steak_house,3.1482135,101.7112058
Capitol Cafe,restaurant,N/A,3.1477233,101.7114876
Ruposhi Bangla,restaurant,bangladeshi,3.1483436,101.7094134
Delizia,restaurant,N/A,3.1473604,101.7092889
Kam Fatt,restaurant,chinese,3.1460754,101.7078600
Kathmandu,cafe,N/A,3.1457378,101.7074366
Mao Jia,restaurant,chinese,3.1462496,101.7076401
Roshona Bilash,restaurant,bangladeshi,3.1465853,101.7080385
Alifa,restaurant,N/A,3.1466961,101.7081595
La Moon,restaurant,thai,3.1382852,101.6300395
Kenny Hills Bakers,restaurant,bakery,3.1384358,101.6300981
Mesui Grill,restaurant,N/A,3.1487603,101.7082698
The Wildflowers,restaurant,N/A,3.1413471,101.6979047
Asia Street Food Club,restaurant,N/A,3.1414748,101.6979021
Nasi Ayam Kam Kee,restaurant,malaysian,3.1430781,101.6985707
Coconut Hub,cafe,N/A,3.1429806,101.6985783
Pau Goreng Lembu Hai Kee,restaurant,N/A,3.1429582,101.6985778
China  Town Seng Kee,restaurant,chinese,3.1433454,101.6985658
Neighbour Club,restaurant,N/A,3.1439265,101.6985639
Happy City Steamboat,restaurant,N/A,3.1525414,101.5954036
3 Man Restaurant,restaurant,N/A,3.1501608,101.5931969
Restoran Jin Xuan Hong Kong,restaurant,N/A,3.1509433,101.5940684
Mee Tarik Jalan Sultan,restaurant,malaysian,3.1526787,101.5922352
Subway,fast_food,sandwich,3.1531581,101.5949554
Pizza Hut Delivery,fast_food,pizza,3.1531631,101.5947752
Domino's,fast_food,pizza,3.1518678,101.5940045
Uncle Don's (Kota Damansara),restaurant,N/A,3.1531973,101.5944683
Sun Thai Food,restaurant,malaysian,3.1532480,101.5941326
Meng Kee,restaurant,chinese,3.1480579,101.7103312
Suriani,restaurant,N/A,3.1474198,101.7098836
The Other Guys,restaurant,N/A,3.1479239,101.7102327
Congkak,restaurant,malaysian,3.1479910,101.7102820
Private Corner,cafe,N/A,3.1465570,101.7041664
Planet Cafe @ Planetarium Negara,cafe,N/A,3.1392080,101.6894688
Subway,fast_food,sandwich,3.1477002,101.5752050
Nasi Lemak Ayam Berempah,restaurant,N/A,3.1528919,101.5790763
The Black Whale,cafe,N/A,3.1513909,101.5913865
Gyukingu Japanese BBQ,restaurant,japanese;barbecue,3.1517421,101.5912906
Sushi Mentai,restaurant,sushi,3.1520041,101.5944460
Restoran D.U. Cafe,restaurant,chinese,3.1513093,101.5940638
Korean BBQ,restaurant,barbecue,3.1525498,101.5951168
KFC,fast_food,chicken,3.0419293,101.7726894
Restoran Howntown Steamboat,restaurant,N/A,3.1505168,101.5932064
Eat Drink Thai,restaurant,N/A,3.1505589,101.5927873
神来一锅,restaurant,N/A,3.1505648,101.5927319
Damansara Uptown Hokkien Mee,restaurant,N/A,3.1504835,101.5936533
Cottle Coffee,cafe,N/A,3.1491910,101.5948374
Pandan,restaurant,N/A,3.1367745,101.6304439
Kumi,cafe,N/A,3.1438715,101.6573850
Passage Thru India,restaurant,indian,3.1467741,101.7211172
One Seafood,restaurant,seafood,3.1473354,101.7207299
SFS Food Corner,fast_food,N/A,3.1463239,101.7139533
Daboba,cafe,bubble_tea,3.0897543,101.7426157
The Black Whale,cafe,bubble_tea,3.0888991,101.7438500
Restoran Nasi Hadramot,restaurant,kebab;middle_eastern;yemen,3.1475068,101.7108128
Peko Peko,restaurant,japanese,3.1385125,101.6301442
KFC,fast_food,chicken,3.1567305,101.6104706
Starbucks Reserve,cafe,coffee_shop,3.1491377,101.5935074
Taco Bell,fast_food,tex-mex,3.1491396,101.5947431
Siam Eatery House,restaurant,thai;asian,3.1516058,101.5934748
KFC,fast_food,chicken,3.1490108,101.6168970
Machi machi,cafe,bubble_tea,3.1460603,101.7117564
Haidilao Hot Pot,restaurant,chinese;hotpot,3.1474956,101.6151958
Haidilao Hot Pot,restaurant,chinese;hot_pot,3.1491690,101.7135988
Haidilao Hot Pot,restaurant,chinese;hotpot,3.1270732,101.7244540
Five Guys,fast_food,burger,3.1491488,101.7125715
TGI Fridays,restaurant,american,3.1489696,101.6163751
McDonald's,fast_food,burger,3.1341177,101.7229387
KFC,fast_food,chicken,3.1346556,101.7225534
Burger King,fast_food,burger,3.1347673,101.7232169
Pizza Hut,restaurant,pizza,3.1347200,101.7239408
The Chicken Rice Shop,fast_food,malaysian;chicken_rice,3.1340173,101.7237668
Food Empire,food_court,N/A,3.1338705,101.7231988
Mykori Dessert Cafe,cafe,dessert,3.1345611,101.7230978
myBurgerLab,fast_food,N/A,3.1344279,101.7229731
"Ali, Muthu & Ah Hock",restaurant,N/A,3.1377713,101.6297269
Mixue,cafe,ice_cream;bubble_tea,3.1258991,101.7274565
Light Capture,cafe,N/A,3.1470874,101.6964416
Secret Recipe,fast_food,cake;malaysian,3.1465137,101.6957660
GEM Restaurant,restaurant,indian,3.1324172,101.6874178
Restoran 2233,restaurant,N/A,2.9916781,101.7866162
Kedai Makanan Wan Fatt,restaurant,N/A,2.9913004,101.7871205
Fu Pot,restaurant,hotpot,3.1443520,101.7197815
Tealive,cafe,tea;coffee_shop,3.1506544,101.5918172
Starbucks,cafe,coffee_shop,3.1506525,101.5918404
Chagee,cafe,bubble_tea,3.1511234,101.5922518
Food Street Food,food_court,N/A,3.1270220,101.7252762
Raw Kitchen Hall,restaurant,N/A,3.1442195,101.6964684
Restoran Queen’s,restaurant,N/A,3.1309829,101.7230133
Nasi Lemak Peel Road,restaurant,N/A,3.1310575,101.7228995
Cielo Rooftop - Dining and Lounge,restaurant,N/A,3.1482561,101.7064875
Best Town Cafe,restaurant,N/A,3.1112466,101.7300126
Bread & Butter,cafe,N/A,3.1481614,101.7070999
Tealive,cafe,tea;coffee_shop,3.0725049,101.7664425
Burger King,fast_food,burger,3.0908664,101.7415477
Medan Selera The Nest @ IMBI,food_court,N/A,3.1438028,101.7134365
Soo Kee's Son prawn & beef noodle,restaurant,N/A,3.1442813,101.7142292
Plan B,cafe,N/A,3.1452470,101.7155933
McDonald's,fast_food,burger,3.1505717,101.7092427
Suzie Wong - Dinner and Show,restaurant,N/A,3.1506535,101.7092683
Pop Meals @ Wisma Lim Foo Yong,restaurant,N/A,3.1505949,101.7091901
BLACK Market (Changkat),restaurant,pizza;chinese,3.1496413,101.7090873
Tealive,cafe,tea;coffee_shop,3.1469975,101.6960343
Flow Coffee @ The Exchange 106,cafe,N/A,3.1414999,101.7187438
Unnamed,restaurant,N/A,3.1051761,101.7314920
Hakata Izakaya,restaurant,N/A,3.0904154,101.7399931
Kyochon,restaurant,N/A,3.0908313,101.7398842
Restoran Steamboat Le Tien,restaurant,N/A,3.0922649,101.7406197
Klang J.X. Bak Kut Teh,restaurant,N/A,3.0913257,101.7397081
Food City,food_court,N/A,3.1260450,101.7274970
Kedai Mamak Husin,restaurant,N/A,3.1445458,101.7042557
Yellow Brick Road,restaurant,N/A,3.1516736,101.6655428
Baan Rao,restaurant,N/A,3.0759183,101.7454658
Rafeena Curry House,restaurant,N/A,3.0779532,101.7446659
Starbucks,cafe,coffee_shop,3.1495300,101.5800428
Starbucks,cafe,coffee_shop,3.1493600,101.5785920
Subway,fast_food,sandwich,3.1496355,101.5788496
Chatime,cafe,bubble_tea,3.1495547,101.5788532
Unnamed,restaurant,N/A,3.1491060,101.6614540
Nourish,restaurant,N/A,3.1518536,101.6654616
Kusa,restaurant,japanese,3.1488909,101.7077115
Mee Tarik Jalan Sultan,restaurant,chinese,3.1428928,101.6985779
Restoran Saji Kota,restaurant,N/A,3.0607231,101.7719454
Krabi Thai Tomyam Seafood,restaurant,N/A,3.0500055,101.7722800
Kedai Kopi Heng Long,restaurant,N/A,3.0499838,101.7706933
Wan Shoon,restaurant,N/A,3.1345561,101.6273120
The Fish Hotspot,restaurant,N/A,3.1345957,101.6265978
SS20 Fish Head Noodle,restaurant,N/A,3.1355412,101.6290394
Dayone Dayone Noodles Pavilion KL,restaurant,N/A,3.1485366,101.7133270
Sam Steam Fish Head,restaurant,N/A,3.0404935,101.7718777
Yan Izakaya,restaurant,N/A,3.0428772,101.7731530
Restoran Sin Hiap Seng 9,restaurant,N/A,3.0423923,101.7717807
Sri Viyna Bhavan,restaurant,N/A,3.0423371,101.7727262
Niko Neko Matcha 2.0 (Chinatown),cafe,N/A,3.1428009,101.6964143
Flaon,cafe,N/A,3.1436231,101.6966836
Experiment Kitchen,restaurant,N/A,3.0408536,101.7717151
Unnamed,restaurant,N/A,3.0456935,101.7725533
IKEA Café,cafe,coffee_shop,3.1350774,101.7215486
Sri Madeena Restaurant,restaurant,N/A,3.0283477,101.7706905
Mixue,cafe,ice_cream;bubble_tea,3.1456147,101.6958690
Contango,restaurant,N/A,3.1384648,101.6919219
Unnamed,restaurant,N/A,3.0002044,101.7848054
Sala,cafe,N/A,3.1422567,101.7108923
Minf Houze Vegan Cafe,restaurant,asian;western,3.1506291,101.7120799
Horizon Grill,restaurant,western,3.1504608,101.7138666
Loong Kee,restaurant,N/A,3.1462613,101.7096790
Yun Xiang Mee Tarik,restaurant,N/A,3.1450092,101.6986786
Chinatown Cendol,restaurant,N/A,3.1425897,101.6981993
Restoran Basmoti,restaurant,N/A,3.1414880,101.7094816
Reto Cafe,restaurant,N/A,3.1466369,101.7107397
Dancing Fish,restaurant,indonesian;malaysian,3.1433997,101.6674265
Restoran Ikhwan,restaurant,N/A,3.1413916,101.7095573
Lala Lok Lok,restaurant,N/A,3.1430165,101.6987413
Grand Sky Restaurant,restaurant,N/A,3.1460098,101.7087743
Restoran Sai Woo,restaurant,chinese,3.1457083,101.7089493
ZUS Coffee,cafe,coffee_shop,3.1448903,101.6958329
Dayang Ros Cafe & Flower Boutique,cafe,N/A,3.1449142,101.6965181
Restoran Charis,restaurant,N/A,3.1465809,101.6976636
Ramen Kumo Floor 4,restaurant,N/A,3.1462476,101.7118118
Luck Bros Kopi,restaurant,N/A,3.1413755,101.6974117
Kusa Japanese Vegan,restaurant,japanese,3.1489581,101.7075786
LaGula By The Hungry Tapir,cafe,N/A,3.1410523,101.6979269
Q Bistro Mamak Signature,restaurant,indian,3.1490298,101.7118923
Happy Lemon,cafe,bubble_tea,3.1453977,101.7119652
bibimmix,restaurant,korean,3.1454814,101.7118937
Soybean Factory,cafe,N/A,3.1455524,101.7118517
Jipinhe,fast_food,chinese,3.1456140,101.7118312
Kuafood Fried Chuan,fast_food,chinese,3.1456670,101.7118134
Nasi Kukus Tongkek,restaurant,malaysian,3.1460556,101.7116617
Sushi Skewer,fast_food,japanese,3.1467468,101.7116050
Wagyukushi,fast_food,japanese,3.1467433,101.7116031
Sweet Potato Factory,fast_food,japanese,3.1467445,101.7116109
Optimist Coffee,cafe,N/A,3.1468077,101.7119582
Rollney,fast_food,sandwich,3.1471433,101.7119463
Kedai Makan Kasih Ibu Dewi Enterprise,restaurant,indonesian,3.1476831,101.7118638
Ikan Bakar Kak Mia,restaurant,malaysian,3.1475855,101.7117293
33 Foodcourt,food_court,N/A,3.1478023,101.7118076
SS Spicy Food,restaurant,N/A,3.1389550,101.6979968
Transparent Coffee,cafe,N/A,3.1386170,101.6973266
Three Years Old Cafe,cafe,N/A,3.1434687,101.7050385
PaPa Kanafa,cafe,N/A,3.1475039,101.7108825
Boost,cafe,N/A,3.1487700,101.7128307
Dunkin',fast_food,donut;coffee_shop,3.1303496,101.6419304
Starbucks,cafe,coffee_shop,3.1564514,101.6117367
Foodland IPC,food_court,N/A,3.1568380,101.6126108
meatgrocer.com,restaurant,N/A,3.1235355,101.7274211
Domino's,fast_food,pizza,3.1451380,101.6986716
Moo-Ka-Ta Krua Thai Restaurant Kota Damansara,restaurant,thai,3.1522629,101.5916899
Famu Famu,restaurant,N/A,3.1525830,101.5916860
Zui Zui Xiang,restaurant,chinese,3.1526685,101.5916915
The Brew House,restaurant,N/A,3.1527211,101.5916966
Casadesa,restaurant,chinese,3.1524336,101.5919148
Hainan Fusion,restaurant,N/A,3.1526179,101.5916915
Baan Thai Seafood Restaurant,restaurant,thai,3.1209312,101.7294374
Isan Thai Restaurant,restaurant,thai,3.1207072,101.7295907
Restoran Suiyi,restaurant,N/A,3.1480756,101.7103400
AoOo Melbourne CAFE,restaurant,N/A,3.1434623,101.6968401
Omega Pork Noodles,restaurant,chinese,3.1526206,101.5947726
Hakka Rang Restaurant,restaurant,chinese,3.1526502,101.5941261
Restoran Yuen Feng,restaurant,N/A,3.1526405,101.5943679
Unnamed,restaurant,N/A,3.1456050,101.7146935
Unnamed,restaurant,N/A,3.1452440,101.7129179
QCup Coffee Roasters,cafe,N/A,3.1441715,101.7129185
Chuai Heng Banquet Hall,restaurant,chinese,3.1455413,101.7179066
Din Sun Kopitiam,cafe,N/A,3.1431636,101.6964682
Makamakan,restaurant,N/A,3.1430564,101.6964513
Nasi Ayam Hainan Chee Meng,restaurant,N/A,3.1452981,101.7091703
Toast Box,cafe,breakfast,3.1483315,101.7031667
Pokok Sunway Velocity,restaurant,N/A,3.1267717,101.7254765
Stesen Nasi Kerabu,restaurant,N/A,3.1534260,101.5796954
Nasi Ayam Mewangi Azeem,restaurant,N/A,3.1531168,101.5790499
Light Capture Cafe,cafe,N/A,3.1498820,101.7131612
Mano,restaurant,mexican;latin_american,3.1508644,101.6643969
Kazu,restaurant,sushi,3.1518639,101.6644711
Pizza Mansion,fast_food,pizza,3.1511087,101.6644399
Monster A Garden Cafe,cafe,N/A,3.1434479,101.6985506
Dodoo Kitchen,restaurant,N/A,3.1432405,101.6966610
MyBolehBoleh,cafe,N/A,3.1424558,101.6982093
Restoran Pik Wah,restaurant,N/A,3.1415614,101.6980604
Burger King,fast_food,burger,3.1338253,101.6864476
Starbucks Reserve,cafe,coffee_shop,3.1431954,101.7167419
Starbucks,cafe,coffee_shop,3.1418323,101.7189647
Shake Shack,fast_food,burger,3.1427073,101.7172635
Mixue,cafe,ice_cream;bubble_tea,3.1420660,101.7100104
KFC,fast_food,chicken,3.1420990,101.7187644
Nando's,restaurant,chicken;portuguese,3.1429299,101.7183443
Gong Cha,cafe,bubble_tea,3.1416955,101.7176202
Tealive,cafe,tea;coffee_shop,3.1415589,101.7177014
% Arabica,cafe,coffee_shop,3.1428685,101.7181820
ZUS Coffee,cafe,coffee_shop,3.1434075,101.7175687
O'Briens,cafe,sandwich,3.1420262,101.7189207
Kaffe 16,cafe,N/A,3.1416978,101.6971740
McDonald's,fast_food,burger,3.1273910,101.7246884
Jollibee,fast_food,burger,3.1273041,101.7248814
Food Exchange Food Court,food_court,N/A,3.1434312,101.7178403
Kunafa Finger's,restaurant,N/A,3.1475740,101.7111994
La Mian Mee Tarik,restaurant,N/A,3.1461570,101.7007497
ZUS Coffee,cafe,coffee_shop,3.0765491,101.7421697
Mr Duck Teowchew Braised,restaurant,N/A,3.0946086,101.7397603
Nam Chau Kopitiam,restaurant,N/A,3.0947885,101.7396975
Sik Thong Ba,restaurant,N/A,3.0948490,101.7396805
FuBoLe Hotpot,restaurant,N/A,3.0952737,101.7395473
Kopitiam LCL 99,restaurant,N/A,3.1459272,101.7017711
Sushi Mentai,restaurant,sushi,3.0895066,101.7422645
ZUS Coffee,cafe,coffee_shop,3.0907044,101.7422374
Jollibee,fast_food,N/A,3.1445488,101.7099736
U-Village,restaurant,N/A,3.1445075,101.7103837
Tong Yik Dessert,cafe,dessert,3.0765906,101.7423154
Beans.Factory,cafe,dessert,3.0765090,101.7420285
Mee Tarik Tarik,restaurant,chinese;asian,3.1521579,101.5947871
Kampung Attap Corner,restaurant,N/A,3.1386461,101.6969564
E-Kandar,restaurant,N/A,3.1500872,101.5943314
Mixue,cafe,ice_cream;bubble_tea,2.9862562,101.7910510
Chagee,cafe,bubble_tea,2.9866029,101.7911064
Coffe To Go,cafe,N/A,2.9833747,101.7902722
Salad Atelier,restaurant,salad,3.1417289,101.7189901
Farm To Plate,restaurant,N/A,3.1363356,101.6289689
Hansang Korean Restaurant,restaurant,N/A,3.1478416,101.6177559
Restoran Aman Bistro,restaurant,mamak,3.0770341,101.7425657
99 Mekong,restaurant,lao,3.0768652,101.7418988
On Fire Restaurant,restaurant,N/A,3.0772510,101.7425024
Malaya Hainan Kafeidian,restaurant,N/A,3.0773856,101.7417469
Sunbather Coffee,cafe,N/A,3.1419831,101.6971865
Restoran Chao Zhou,restaurant,N/A,3.1458576,101.7091508
Boleh Seafood Pot,restaurant,N/A,3.1460625,101.7094435
Alor Hawker Fried,restaurant,N/A,3.1459795,101.7092997
Sang Kee Restaurant,restaurant,noodle,3.1465807,101.6970818
Gerai Makanan Sai Kee,restaurant,chinese,3.1437778,101.6981836
Durian Power,restaurant,N/A,3.1454439,101.7075388
Shhhbuuuleee,restaurant,N/A,3.1449130,101.6984796
Oloiya,fast_food,N/A,3.1445155,101.6983573
Koong Woh Tong,fast_food,tea,3.1425994,101.6977245
Bingxue,cafe,ice_cream;bubble_tea,3.1451387,101.6973655
Holland's Fries,cafe,Fries,3.1460957,101.7111043
Al-Sultan,restaurant,N/A,3.1462864,101.7112398
99 Heaven Juice,cafe,juice,3.1462160,101.7111010
Cheese Potato,restaurant,N/A,3.1461157,101.7111024
Kunafa Crisp,fast_food,N/A,3.1474252,101.7112178
Restoran Paradise,restaurant,N/A,3.1451228,101.7089748
Lanzhou Mee Tarik,restaurant,N/A,3.1480804,101.7112070
Habibi Juice,cafe,juice,3.1474740,101.7108879
Shawarma,restaurant,N/A,3.1466093,101.7107757
Mixue,cafe,ice_cream;bubble_tea,3.1462205,101.7104190
Mixue,cafe,ice_cream;bubble_tea,3.1451054,101.7114452
Pizza Hut,restaurant,pizza,3.1495879,101.7129674
Mixue,cafe,ice_cream;bubble_tea,3.1473234,101.6179876
Nando's,restaurant,chicken;portuguese,3.1495256,101.7126899
Burger King,fast_food,burger,3.1495713,101.7128829
KFC,fast_food,chicken,3.1494967,101.7125625
The Chicken Rice Shop,fast_food,malaysian;chicken_rice,3.1495454,101.7127806
Wong Mee Coffee Stall,cafe,coffee_shop,3.1440589,101.6961638
Wan Tan Mee Food Stall,fast_food,chinese,3.1441610,101.6981136
Hameediyah Multi Concept,restaurant,N/A,3.1472806,101.7117189
Tealive,cafe,tea;coffee_shop,3.1430028,101.6952968
ZUS Coffee,cafe,coffee_shop,3.1477950,101.7183404
McDonald's,fast_food,burger,3.1473957,101.7177356
Pucks Coffee,cafe,N/A,3.1436365,101.6969443
Kantata,cafe,N/A,3.1381477,101.6971818
Tommy Le Baker,cafe,N/A,3.1379588,101.6971956
Mixue,cafe,ice_cream;bubble_tea,3.1272711,101.7248073
Pop's Pizza,fast_food,pizza,49.0610447,-81.0264925
Grand-ma Express,fast_food,chicken,49.0610420,-81.0264600
Yellow Bars,restaurant,american;breakfast;cocktails;coffee_shop;local,49.0602649,-81.0237208
Illy,cafe,breakfast;coffee_shop;seafood,3.1499566,101.7124902
Sri Ganesa,restaurant,N/A,3.1431856,101.6966421
Nasi Kandar Safreen,restaurant,indian;malaysian,3.1453098,101.7181210
Haikahlang,restaurant,chinese,3.1448843,101.7172192
Mixue,cafe,ice_cream;bubble_tea,3.1337987,101.6872469
Opeum Bistro Kuala Lumpur,restaurant,international,3.1448932,101.7181935
Pin Yuen Noodle House,restaurant,noodle,3.0771371,101.7418229
Tealive,cafe,tea;coffee_shop,3.1469882,101.7117266
Dunkin',fast_food,donut;coffee_shop,3.1464950,101.7112082
Kveh Cik Noor,restaurant,N/A,3.1462233,101.7097430
Yew Yew Coffee,cafe,N/A,3.1434496,101.6987360
Zayn Alsham,fast_food,N/A,3.1463115,101.7111027
Loaded Kumpir,fast_food,N/A,3.1462755,101.7110308
Lapaq King,fast_food,N/A,3.1462557,101.7110033
The Ship,restaurant,N/A,3.1462898,101.7105052
Restoran Cheras Kopitiam,restaurant,chinese,3.1206387,101.7286915
Me’nate,restaurant,steak_house,3.1574788,101.6113929
Dolly Dim Sum,restaurant,N/A,3.1576865,101.6113295
Starbucks,cafe,coffee_shop,3.1577391,101.6114324
Concubine KL,restaurant,chinese;malaysian,3.1417131,101.6975608
Ní Kizoku,restaurant,japanese,3.1430666,101.6987828
Eden Coffee Rooftop,cafe,N/A,3.1465147,101.7116616
Master Lee Hot Pot,restaurant,chinese;hot_pot,3.0766780,101.7426017
Kakedo Dodo Food Court,food_court,N/A,3.0774323,101.7418428
erni&tina,cafe,N/A,3.0760531,101.7429040
Vegelab,cafe,N/A,3.0760625,101.7430970
Ayam Getok Mantul,restaurant,chicken,3.0760737,101.7432334
Kuali Bonda,restaurant,N/A,3.0785037,101.7423887
GotTo Eat,restaurant,N/A,3.0784881,101.7422984
Restoran PB Mamak Bistro,restaurant,N/A,3.0784586,101.7421240
Restoran Sri Tanjung,restaurant,N/A,3.0784198,101.7419466
Thai Girl Mookata,restaurant,N/A,3.0785338,101.7424694
Antonio’s Trattoria Calabria,restaurant,N/A,3.1363729,101.6309099
Turkish Cafe Istanbul,restaurant,N/A,3.1322631,101.6296984
SCG Discovery,restaurant,N/A,3.1436028,101.7088921
Unnamed,cafe,N/A,3.1433095,101.7108621
The Coffee Bean & Tea Leaf,cafe,coffee_shop,3.1330634,101.6873885
Opera Cafe & Lounge,restaurant,international,3.1476853,101.7137518
Vivo Pizza,restaurant,pizza,3.1423906,101.7107033
Restoran Kam Lun Tai,restaurant,N/A,3.1508594,101.5910929
Padang Kota Corner,restaurant,N/A,3.1481676,101.5740051
Mee Tarik Sedap Lan Zhou,restaurant,N/A,3.0770873,101.7422222
Lingtang 138 Claypot Coffee,cafe,N/A,3.0770641,101.7421176
Restoran Happy Town,restaurant,N/A,3.0768598,101.7419712
Neu Xinmin Vegetarian Restaurant,restaurant,chinese,3.1325762,101.6883898
Bombay Talkies,restaurant,indian,3.1330428,101.6879960
Pizza Hut,restaurant,pizza,3.0731475,101.7628653
Starbucks,cafe,coffee_shop,3.0730529,101.7628750
ZUS Coffee,cafe,coffee_shop,3.0729221,101.7630381
Pu Xian Wei Restaurant,restaurant,chinese,3.1326652,101.6884843
Celebrity Cafe & Bistro,cafe,N/A,3.0786461,101.7450227
Five Thousand Years,restaurant,N/A,3.1012951,101.7358483
黥 KOBU by Wagyu Tavern,restaurant,japanese,3.1442488,101.7186249
Wagaya KL Japanese Cuisine,restaurant,japanese,3.1450500,101.7197595
Saigon Viet Cuisine,restaurant,vietnamese,3.1457939,101.7186981
US Pizza,fast_food,pizza,3.0491728,101.7715046
Visalatchi’s Banana Leaf,restaurant,N/A,3.1354443,101.6918781
Jiu Yi Cha Ji 九億茶記 Sunway Giza (Kota Damansara),restaurant,asian;chinese,3.1508788,101.5918479
煲你喜欢 Claypot Sifu Restaurant,restaurant,chinese,3.1430864,101.7154433
New Ocean,restaurant,chinese,3.1426801,101.7154394
Yu Yi Bak Kut Teh,restaurant,chinese,3.1427938,101.7154397
OK Kari Kepala Ikan,restaurant,malaysian,3.1428966,101.7154404
Onn Kee Claypot Seafood Porridge,restaurant,chinese;porridge,3.1429952,101.7154407
火凤凰 Fire Phoenix,restaurant,noodle,3.1431969,101.7154341
Wang Hing Imbi Seafood,restaurant,chinese,3.1428882,101.7148571
Nasi Kandar Imbii,restaurant,N/A,3.1435458,101.7154418
Al Rawsha,restaurant,middle_eastern,3.1388449,101.7219008
Mansion 9,restaurant,chinese,3.1384744,101.7230283
Golden Dragonboa,restaurant,chinese,3.1388721,101.7224236
Espresso Impresso - Sunway Nexis,cafe,coffee_shop;malaysian,3.1498721,101.5948647
Su Xiang Ji,cafe,N/A,3.1424536,101.6972895
Barra,restaurant,N/A,3.1408071,101.6981028
The Hideout @ Petaling,restaurant,N/A,3.1409070,101.6980920
Sri Idaman Corner,restaurant,N/A,3.1433076,101.6958215
Cakchibo House,restaurant,N/A,3.1445860,101.7205188
ZUS Coffee,cafe,coffee_shop,3.1451633,101.7206019
Q Bistro,restaurant,N/A,3.1521061,101.5923044
XHF Mala Tang,restaurant,N/A,2.9861959,101.7910517
SM Burger & Cafe,fast_food,N/A,2.9838596,101.7907869
Seven Cafe,restaurant,N/A,3.1438007,101.7211379
Chagee,cafe,bubble_tea,3.1426784,101.6971151
Ploy,restaurant,asian,3.1525547,101.6666279
"Toong Kwoon Chye ""Mee""",restaurant,chinese,3.1439651,101.7079491
Starbucks,cafe,coffee_shop,3.1455596,101.6629585
Qasioo Kitchen,restaurant,rice;indonesian,3.1356147,101.6883363
Gurney's Flavour,restaurant,N/A,3.1357288,101.6880660
La Rica,restaurant,N/A,3.1357844,101.6880967
Salad Atelier,restaurant,salad,3.1356640,101.6882203
Golden Siam,restaurant,thai,3.1388925,101.7223206
Uwan Salai,restaurant,malaysian,3.1354350,101.7250417
Shawarma Street,restaurant,N/A,3.1478492,101.7108086
Unnamed,restaurant,N/A,3.0779818,101.7446425
Q Bistro Mamak Signature,restaurant,N/A,3.1475088,101.7193410
Dua Darjat,cafe,coffee_shop,3.1463795,101.6953554
Taste Of Medan,restaurant,N/A,3.1464307,101.6953481
Pak Jen,restaurant,N/A,3.1465000,101.6953330
Ayamas,restaurant,malaysian,2.9930966,101.7847883
Blob,cafe,bubble_tea,3.1464462,101.6957621
Miyakori Coffee,cafe,N/A,3.1434843,101.7047948
Al Baik,restaurant,N/A,3.1456233,101.6984123
Zada Cafe,cafe,N/A,3.1441135,101.6955674
Thaba Express,restaurant,N/A,3.1465506,101.7013785
Transit Cafe,cafe,N/A,3.1459986,101.7014778
Treasure Island,restaurant,N/A,3.1456362,101.7029727
Loke Yuen Vegetarian,restaurant,chinese,3.1449142,101.7087565
ASLI Shawarma BBQ,fast_food,arab,3.1475485,101.7108883
Thong Kee Plus @ TSLAW Tower,restaurant,malaysian,3.1443284,101.7198602
Chagee,cafe,bubble_tea,3.0729973,101.7630952
Pauline's,fast_food,N/A,3.0730884,101.7629557
Mixue,cafe,ice_cream;bubble_tea,3.0728456,101.7633205
Lai Fong Lala Noodles,restaurant,N/A,3.1445988,101.6987064
Yang's Braised Chicken,fast_food,chinese,3.1446529,101.7095810
Bottega KL,restaurant,italian,3.1483741,101.7061707
The Cheesy Twist,restaurant,N/A,3.1446568,101.7042753
de’ Kasthamandap,restaurant,nepalese,3.1479473,101.7072748
Boraa Bora Kitchen & Bar,restaurant,N/A,3.1477328,101.7077711
Paan,restaurant,asian,3.1471098,101.7084365
Cheese Potato,fast_food,N/A,3.1460611,101.7098855
Alzoaq,fast_food,kebab,3.1460033,101.7099301
Gen Yakiniku,restaurant,japanese,3.1476099,101.7069250
Unnamed,food_court,N/A,3.1429208,101.7178541
SoYoung Malaysia,restaurant,japanese,3.1428760,101.7178819
Grumpy Bagels,cafe,N/A,3.1456828,101.7162435
Tealive,cafe,tea;coffee_shop,3.1430640,101.7197411
Kapitan Bistro,restaurant,N/A,3.1457906,101.6958516
Fuiyoh! It's Uncle Roger,restaurant,asian,3.1352339,101.7220714
Jamaica Blue,cafe,coffee_shop,3.1449221,101.7044650
New Bhansaghar Restaurant,restaurant,nepali,3.1467271,101.6966510
Mixue,cafe,ice_cream;bubble_tea,3.1532834,101.5928427
Mil Toast,cafe,N/A,3.1479843,101.6176970
Restoran Al Wira Curry House,restaurant,indian,3.1447760,101.7055513
Jamun,restaurant,N/A,3.1323704,101.6296929
Chef Long Fish & Lamb Pot,restaurant,chinese,3.1430431,101.7154419
High Street Art Cafe,restaurant,N/A,3.1461390,101.6966581
Ola,cafe,N/A,3.1456627,101.6966973
VIP Kawan-kawan,restaurant,N/A,3.1456803,101.6970116
BHC Chicken,restaurant,chicken;korean,3.1492130,101.6170618
Nasi Kandar Al Safinah Maju,restaurant,N/A,3.1462681,101.6991231
Restoran Zayyar Beriani,restaurant,N/A,3.1462188,101.6992068
AR One International,restaurant,N/A,3.1461857,101.6975216
Noble Village,restaurant,N/A,3.1469135,101.7190807
Restoran Charis,restaurant,N/A,3.1468941,101.6973072
Restoran VIP Kawan-Kawan,restaurant,N/A,3.1468645,101.6973383
Restoran Dhaka Biryani,restaurant,N/A,3.1469198,101.6975103
Restoran Fatema,restaurant,N/A,3.1470235,101.6973840
Cumilla Restaurant & Biryani House,restaurant,N/A,3.1461372,101.6970956
Oochid Bistro,restaurant,N/A,3.1456076,101.6975762
Yi Pin Lao Hotpot BBQ,restaurant,N/A,3.1442888,101.6959810
Golden Rose,restaurant,N/A,3.1460135,101.6984682
AR One International,restaurant,N/A,3.1462419,101.6981602
Nando's,fast_food,N/A,3.1424605,101.7109195
Food court,food_court,N/A,3.1419533,101.7101512
Jue Kitchen - Pasta,restaurant,N/A,3.1427112,101.6984181
ZUS Coffee,cafe,coffee_shop,3.1469205,101.6186340
Monograph Dining,restaurant,N/A,3.1428053,101.6963845
Da Bao Restobar,restaurant,bao,3.1415265,101.6979023
Thollu Vandi,restaurant,N/A,3.1352907,101.6920301
Restoran Shrinivasa Bhavan,restaurant,N/A,3.1352548,101.6920512
Lawanya Food Corner,fast_food,N/A,3.1356267,101.6913487
Ministry of Crab,restaurant,sri_lankan,3.1412609,101.7073577
Hock Kee Kopitiam,restaurant,malaysian,3.1410507,101.7073336
as i am,restaurant,thai,3.1411674,101.7073155
Ting Shan,restaurant,chinese,3.1411013,101.7071489
Yorimichi Cafe,cafe,N/A,3.1446966,101.6962973
Jackson JR Stall,fast_food,N/A,3.1452504,101.6989383
Towzen,restaurant,japanese,3.1465745,101.6623366
Koppiku,cafe,coffee_shop,3.1516325,101.6656301
Nutty Apam Balik,fast_food,N/A,3.1444703,101.6964381
Blossom a Glassmansion,restaurant,western,3.1463892,101.7181481
Doña Bakehouse,restaurant,N/A,3.1442509,101.7199123
Dong Chao Yuan,restaurant,chinese,3.1459242,101.7183680
Annabell KL,restaurant,N/A,3.1443427,101.7198169
He Lee,restaurant,chinese,3.1449804,101.7153955
Ming Kee Cantonese,restaurant,chinese;cantonese,3.1450519,101.7153860
Ar Raaziq,restaurant,N/A,3.1442843,101.7154296
Zeteo,cafe,N/A,3.1423286,101.6978145
Wawafish,restaurant,N/A,3.1417429,101.6978847
Lo And Behold,restaurant,N/A,3.1416305,101.6978926
GUI GUI Korean Barbecue,restaurant,korean;barbecue,3.1415736,101.6978379
Golden Flower,restaurant,chinese;canadian,49.0612938,-81.0253367
The Steak Empire,restaurant,steak_house,3.1397581,101.7212708
Oversea Seafood KL,restaurant,seafood,3.1416950,101.7214795
Luckin Coffee,cafe,coffee_shop,3.1471542,101.6626850
Young Sanna Mee,restaurant,N/A,3.1534149,101.5913085
Nasi Kandar Umar,restaurant,N/A,3.1479041,101.7108007
Luna Kitchen,cafe,N/A,3.1431174,101.6966502
AIR MATA KUCING,fast_food,malaysian,3.1444898,101.6978190
Nongkrong Cafe,fast_food,N/A,3.1457535,101.7003006
Durian Brothers,cafe,N/A,3.1438775,101.7077980
Idris Mee Tarik,restaurant,N/A,3.1443288,101.7042255
Green Veggie,restaurant,N/A,3.1437221,101.6967034
Bites,restaurant,N/A,3.1452960,101.6993837
Big Mouth Bak Kut Teh,restaurant,N/A,3.1439136,101.6969166
Restoran New Sek Yuen,restaurant,N/A,3.1439211,101.6971452
Sister Chicken Rice,restaurant,N/A,3.1439173,101.6969514
Raijin Men,restaurant,noodle,3.1449909,101.6983391
Stellar Coffee,cafe,N/A,3.1448627,101.6984826
Le Petit Hamburg,restaurant,N/A,3.1449978,101.6981551
WEEEE by Welemon,restaurant,dessert,3.0774317,101.7424414
Chagee,cafe,bubble_tea,3.0902137,101.7428175
Mixue,cafe,ice_cream;bubble_tea,3.0899931,101.7431482
668 Restaurant,restaurant,N/A,3.1442291,101.6977399
Chan Thong Kee,restaurant,N/A,3.1445112,101.6982984
668 Food Centre,food_court,N/A,3.1445065,101.6985075
Heemo's Pizza,fast_food,N/A,3.1474205,101.5754874
Al-Kawthar Chinese Muslim Noodle Restaurant,restaurant,N/A,3.1479464,101.5743836
Arabica Middle Eastern Restaurant,restaurant,N/A,3.1477986,101.5747740
Zhu Guang Yu Hot Pot,restaurant,N/A,3.1441145,101.7060280
Super Matcha,cafe,matcha,3.1438195,101.7168984
Medan Selera Tempat Letak Kereta Bertingkat PA Seri Sabah,food_court,N/A,3.1165865,101.7262025
V3 Saigon Viet Cafe,restaurant,vietnamese,3.1275235,101.7297869
Radi Heart Resto Bar,restaurant,N/A,3.1435899,101.7056243
Baskbear Coffee,cafe,N/A,3.1430162,101.7197475
Lan Zhou Mee Tarik,fast_food,arab;malaysian,3.1449419,101.7075824
arest,cafe,N/A,3.1437035,101.7172116
Dapo L.A,restaurant,N/A,3.1237786,101.7268399
Unnamed,fast_food,N/A,3.1236126,101.7269114
Loong Kee,fast_food,N/A,3.1439812,101.6975967
WIP,restaurant,N/A,3.1427750,101.6668904
Roberto’s,restaurant,N/A,3.1427837,101.6670685
Huckleberry,restaurant,N/A,3.1428366,101.6673079
Merdeka Grill,restaurant,barbecue,3.1417171,101.7007387
Park Lounge,restaurant,western;asian,3.1416270,101.7007790
Murni Discovery,restaurant,malaysian,3.1426003,101.7051601
100 Years Nasi Lemak,restaurant,malaysian,3.1430627,101.7053424
Breakfast Spot,cafe,N/A,3.1435852,101.7048578
Angtara,restaurant,regional,3.1434384,101.7047768
Waaron Kuus,restaurant,N/A,3.1431470,101.6978829
Joy Food And Drink,fast_food,N/A,3.1426585,101.6977147
V8 Kitchens EXP,cafe,coffee_shop,3.1429483,101.6979014
Butter Kaya,restaurant,N/A,3.1436143,101.6978206
Restoran Farhaman,restaurant,N/A,3.1437821,101.6977884
Haypii Kopii,cafe,N/A,3.1432095,101.6976853
No 27,restaurant,N/A,3.1442374,101.6985620
Bee Cheng Hiang,fast_food,N/A,3.1442600,101.6987077
Chinese Food City,fast_food,N/A,3.1425636,101.6979585
Restoran H&Y Jalan Sultan,restaurant,N/A,3.1443126,101.6987015
Kedai Kopi Xiong Wor,restaurant,malaysian;kopitiam,3.1392439,101.6298177
India gate (no more bars or clubs here),restaurant,N/A,3.1477823,101.7084593
AMANECO,cafe,N/A,3.0384194,101.7741893
Ferria KL,restaurant,N/A,3.1478907,101.7144257
Community Coffee Roasters,cafe,coffee_shop,3.1303490,101.6419573
Sedap,restaurant,N/A,3.1504158,101.7145527
Red Chinese Cuisine,restaurant,chinese,3.1504831,101.7144541
Terrace,cafe,N/A,3.1505423,101.7145780
Lavang,restaurant,N/A,3.1424468,101.7050202
Yum Yum BBQ,restaurant,N/A,3.1259423,101.7250296
theLocal Kopi Malaya Signature,cafe,malaysian,3.1557272,101.6129381
AllAce,fast_food,burger;chicken,3.0902616,101.7424012
Restoran Teoh Heng Kee,restaurant,N/A,3.0878723,101.7379912
Warung Babi Guling Jenny,restaurant,N/A,3.0878700,101.7380358
Shun Shun Lai,cafe,N/A,3.0878817,101.7378153
Green Lane Noodles,restaurant,N/A,3.0878955,101.7375141
Taste Good Gourmet,restaurant,taiwanese;japanese,3.0879131,101.7372150
Restoran Lim Kee Pan Mee,restaurant,N/A,3.0879176,101.7370452
Chaos House,restaurant,N/A,3.0879359,101.7366234
1188 Curry Fish Head and Steam Fish Restaurant,restaurant,N/A,3.0879377,101.7365638
Richiamo,cafe,N/A,3.1468044,101.6947466
Old Peking Grilled Fish,restaurant,N/A,3.1431222,101.6987376
Warung Awana,fast_food,N/A,3.1466716,101.6935936
Nasi Kandar AZ Signature,restaurant,N/A,3.1436252,101.7113765
Yue Cha Dao,restaurant,N/A,3.1464110,101.7002324
Bluebird,cafe,N/A,3.1427265,101.7024654
Fluffed,restaurant,N/A,3.1426529,101.6972125
Kim Yong Gee,restaurant,noodle,3.1425767,101.6980783
Sutera Mas Beef Roti,fast_food,N/A,3.1425910,101.6975196
1978 Cucur Udang,fast_food,N/A,3.1425921,101.6975383
Restoran Nasi Kandar MS Maju,restaurant,N/A,3.1127626,101.7295584
The Ngon Salad Rolls,restaurant,N/A,3.1459050,101.7018564
Restoran Kenki Foodcourt,restaurant,N/A,3.0999888,101.7333477
Peel Road Kopitiam,restaurant,N/A,3.1251908,101.7264346
Mafuji Hotpot,restaurant,N/A,3.1250893,101.7265140
Ditan Hot Pot,restaurant,N/A,3.1257833,101.7253671
Xiao La Mei F&B Sdn. Bhd.,restaurant,N/A,3.1287955,101.7208623
28 Food House,food_court,N/A,3.1298851,101.7193684
Hailam Vege Kopitiam,restaurant,N/A,3.1210154,101.7286822
M Restoran,restaurant,chinese,3.1208972,101.7286689
Restoran Kou Shui,restaurant,N/A,3.1207270,101.7286563
Hometaste Mix Rice,restaurant,N/A,3.1204000,101.7285973
AllAce,fast_food,burger;chicken,3.1200918,101.7285537
Lanka Taste,restaurant,N/A,3.1458251,101.7021502
Pizzeria Dihyang,restaurant,pizza,3.1464920,101.7016139
Esca KL,restaurant,N/A,3.1418075,101.6978508
Thoulath Rojak & Cendol,restaurant,N/A,3.0714176,101.7671738
Dury Dury,restaurant,N/A,3.1446767,101.7067540
Daawat,restaurant,indian,3.1449247,101.7066272
Liuli House,restaurant,noodle,3.1383618,101.6993648
Flavorsome,restaurant,indian,3.1382728,101.6994713
Miss Coco,cafe,N/A,3.1491097,101.7077201
Outreach Coffee,cafe,N/A,3.1438395,101.7077659
Kaihomaru,restaurant,N/A,3.1438116,101.7090239
Yaki Soul,restaurant,japanese;sushi,3.1489258,101.7084117
Shaik Corner Maju,fast_food,N/A,3.1433062,101.6997585
Court Hill Corner,fast_food,N/A,3.1468080,101.7003857
Ruby Cafe,restaurant,N/A,3.1467289,101.7008215
After Summer,cafe,N/A,3.1254756,101.7260464
Fengche Chu Hot Pot,restaurant,N/A,3.1255972,101.7257704
Chicken Everyday,fast_food,N/A,3.1256381,101.7256950
Mei Fan Now Bbq,restaurant,N/A,3.1252325,101.7264006
Yoursnackies,cafe,N/A,3.1256964,101.7255270
Guizhou Cuisine,restaurant,N/A,3.1256236,101.7257355
Guan Wai Ye Ren,restaurant,N/A,3.1251593,101.7264735
Faizal Kong Mee Tarik,restaurant,N/A,3.1450601,101.6943962
ZUS Coffee,cafe,coffee_shop,3.1444906,101.6942212
Luckin Coffee,cafe,coffee_shop,3.1444101,101.7094201
ChaTraMue,cafe,coffee_shop,3.1442867,101.6940619
Good News Pizza,restaurant,N/A,3.1409618,101.6980915
Huangjia Bistro,restaurant,N/A,3.1433252,101.7083539
New Chennai Bakery,restaurant,N/A,3.1352222,101.6912378
Unnamed,fast_food,N/A,3.1348727,101.6913510
Ayyappa Pullingo,fast_food,N/A,3.1351297,101.6910782
Unnamed,fast_food,N/A,3.1353511,101.6908951
Loke Yuen vegetarian,restaurant,N/A,3.1450191,101.7088700
Brew & Bond,cafe,N/A,3.1440479,101.7082088
Subway,fast_food,sandwich,3.1405723,101.7068632
Adough,cafe,coffee_shop,3.1468731,101.7194946
Mawar Merah 118-2,restaurant,N/A,3.1426864,101.6990910
Malaya Nyonya House,restaurant,N/A,3.1419108,101.6990953
Summation,cafe,N/A,3.1449274,101.6984076
Hock Kee Kopitiam 福气安康 (Kota Damansara),restaurant,malaysian,3.1533673,101.5919022
Uncle Soon Fried Rice @ Wisma Cosway,restaurant,N/A,3.1508208,101.7119175
The Industry,restaurant,N/A,3.1513867,101.6646480
Feeka Coffee Roasters,cafe,coffee_shop,3.1511439,101.6644410
Healthy Spoon,restaurant,N/A,3.1469235,101.7197953
Want Eat 2,food_court,N/A,3.1476555,101.7013084
Pampas Bukit Ceylon,restaurant,N/A,3.1484196,101.7030035
On The Go,cafe,N/A,3.1444023,101.6941928
Bunga Telang,fast_food,N/A,3.1441869,101.6936079
Cilantro Cafe,cafe,N/A,3.1445649,101.6942326
Pinggan Ayan,fast_food,N/A,3.1441550,101.6935741
Greedy Grill,fast_food,N/A,3.1441277,101.6935246
Unnamed,restaurant,indian,3.1573394,101.6123027
Restoran Nasi Kandar Al-Sarifa,restaurant,N/A,3.0429632,101.7722147
Heritage Kopitiam,restaurant,N/A,3.0406724,101.7704664
Restoran Cui Yan,restaurant,N/A,3.0425277,101.7723845
Viet Pho Cafe,cafe,vietnamese,3.0389982,101.7692212
Milwaukee Steak Corner,restaurant,steak_house;soup;salad;pizza;seafood;pasta,3.0386457,101.7690274
Warakuya Japanese Cuisine,restaurant,japanese,3.0903938,101.7423784
Mi Viet,restaurant,vietnamese,3.0879413,101.7429241
S11 Mixed Rice,restaurant,N/A,3.0884514,101.7433999
Ming Si Vegetarian Restaurant,restaurant,N/A,3.0883882,101.7433385
Southern Kopi,restaurant,N/A,3.0893535,101.7443232
Restoran Hong Sang,restaurant,N/A,3.0902695,101.7436242
Food City,food_court,N/A,3.0905890,101.7414253
Duo Rou Hot Pot BBQ Buffet,restaurant,N/A,3.0908362,101.7413676
Mixue,cafe,ice_cream;bubble_tea,3.0909114,101.7424619
Romaliya,restaurant,italian,3.0905507,101.7415233
ALittle Tea,cafe,N/A,3.0909271,101.7425734
B.O.D. 包栈,cafe,N/A,3.0908422,101.7416232
Bananabro,restaurant,N/A,3.0908078,101.7413932
Boost Juice,cafe,juice,3.0909702,101.7428248
Bungkus Kaw Kaw,restaurant,N/A,3.0908053,101.7424871
Cotti Coffee,cafe,N/A,3.0907819,101.7419153
Esquire Kitchen,restaurant,N/A,3.0910046,101.7426116
Go Noodle House,restaurant,N/A,3.0907413,101.7413151
Hotpot Kitchen Express,restaurant,N/A,3.0908289,101.7415463
KOI Thé,cafe,N/A,3.0906679,101.7414745
Oiso,restaurant,korean,3.0906923,101.7420659
Old Nanyang Coffee,restaurant,N/A,3.0907428,101.7424282
Penang Chendul,restaurant,N/A,3.0908830,101.7418576
Salad Atelier,restaurant,salad,3.0910234,101.7428848
Simple Life Healthy Vegetarian Restaurant,restaurant,N/A,3.0908334,101.7426083
Sushi Boy,restaurant,sushi,3.0910753,101.7428148
Sushihan,restaurant,sushi;japanese,3.0910266,101.7430653
Tealive,cafe,tea;coffee_shop,3.0908870,101.7418001
Tsuen Wan Restaurant,restaurant,N/A,3.0908805,101.7431872
U-Village Hong Kong Restaurant,restaurant,N/A,3.0906483,101.7413285
Empire Sushi,restaurant,sushi,3.0907940,101.7418265
Roy Bonzer Corner,fast_food,N/A,3.1446298,101.7074376
Virunthu at KL Town,food_court,N/A,3.1353935,101.7251755
TSK Cafe,restaurant,malaysian,3.1342796,101.6910606
Lovecity Cafe,cafe,N/A,3.1335779,101.6897964
Ziyafat,restaurant,N/A,3.1447734,101.7086143
Restoran Beh Brothers,restaurant,N/A,3.1451792,101.7082933
Azuma Cafe,restaurant,N/A,3.1431326,101.7094615
Pizza Hut,restaurant,pizza,3.1389940,101.6280431
JR's BBQ Ranch,restaurant,barbecue,49.0603347,-81.0302317
Golden Flower,restaurant,chinese,49.0612799,-81.0253915
The Ice Hut,restaurant,burger;grill,49.0621559,-81.0275745
LaPARK,food_court,N/A,3.1496467,101.7152794
Medan Sate,food_court,N/A,2.9915687,101.7883870
Fifth Avenue Coffee Shop,restaurant,N/A,3.1006395,101.7321753
Unnamed,food_court,N/A,3.1550736,101.6038910
Big Tree,restaurant,N/A,3.1400977,101.6281947
Pickle & Fig,restaurant,N/A,3.1401658,101.6283889
Dotty's Patries,restaurant,N/A,3.1402338,101.6285832
d'Cengkih,restaurant,N/A,3.1398050,101.6281510
Domino's,fast_food,pizza,3.1398503,101.6282805
Abadi Cafeteria,restaurant,N/A,3.1399412,101.6285393
Ismail,restaurant,N/A,3.1399866,101.6286688
Kwan Lee,food_court,N/A,3.1402747,101.6286995
Kedey Kamek,restaurant,N/A,3.1402973,101.6287645
Do'Stim Noodle/BBQ,restaurant,N/A,3.1403200,101.6288292
Mahesha,restaurant,indian,3.1401181,101.6290442
Chakuro Yakiniku,restaurant,N/A,3.1401636,101.6291738
Secret Recipe,fast_food,asian,3.1405492,101.6296500
Kapitan,restaurant,cake;malaysian,3.1406143,101.6296273
pebble - llaollao,restaurant,N/A,3.1406794,101.6296048
Kiya's,restaurant,steak_house,3.1409611,101.6297838
Restoran Puteri,restaurant,asian,3.1408960,101.6298063
Big Singh Capati,restaurant,indian,3.1407006,101.6298740
Viet Thai,restaurant,vietnamese;thai,3.1406358,101.6298967
Bedouin,restaurant,arab,3.1389358,101.6301230
Ember Modern Bistro,restaurant,international,3.1390505,101.6298120
Chong Thong Kee,restaurant,chicken,3.1391081,101.6297926
Chuen Hainanese Chicken Rice,restaurant,chinese,3.1395999,101.6296279
The Brew House,restaurant,international,3.1393606,101.6290949
Loco,restaurant,international,3.1393406,101.6290374
Uncle Don's,restaurant,N/A,3.1393005,101.6289226
Mosin,restaurant,indian,3.1391730,101.6285625
Spesial Sambal Waroeng,restaurant,asian,3.1390336,101.6281628
McDonald's,fast_food,burger,3.1404584,101.6292435
McDonald's,fast_food,burger,3.1495574,101.5797696
Medan Selera Tanjung Village,food_court,N/A,3.1521615,101.5926368
Neighbourhood Foodcourt,food_court,N/A,3.1520937,101.5940468
Andaman Seafood Village - Seafood Restaurant Kuala Lumpur,restaurant,seafood;asian;regional;chinese;chicken;sushi;thai;ice_cream;fish;tea;salad;diner;pasta;malaysian;fine_dining;soup,3.1470508,101.7181634
Medan Selera MBPJ Damansara Kim,food_court,N/A,3.1362089,101.6294526
Unnamed,food_court,N/A,2.9911257,101.7871868
Unnamed,restaurant,N/A,3.0728032,101.7660685
Unnamed,restaurant,N/A,3.0721589,101.7664642
Unnamed,restaurant,N/A,3.0727325,101.7653911
Thomson Cafe,fast_food,N/A,3.1495804,101.5790331
Bookafe,cafe,N/A,3.0459230,101.7722149
探 Cafe tàn cafe tan cafe,cafe,malaysian;taiwanese;bubble_tea,2.9872187,101.7911188
Gerai Selera Impian,food_court,N/A,3.1725581,101.5756425
Al Baik Di Bistro,restaurant,N/A,3.1445639,101.6959457
Dong Mun Kopitiam,food_court,N/A,3.1434434,101.6973251
Dilmi Thai Tomyam,restaurant,thai,2.9811742,101.7895514
Medan Selera Madani Leboh Pudu,food_court,N/A,3.1460587,101.6980611
Laman @ Menara Maybank,food_court,N/A,3.1471891,101.7005066
Pusat Penjaja Taman Segar (C),food_court,N/A,3.0882000,101.7433582
Pusat Penjaja Taman Segar (A),food_court,N/A,3.0903792,101.7435852
